{  
  "常州市": {  
      "adcode": "320400", 
      "longitude": 119.616576,
      "latitude": 31.587123,
      "scenic_spots": [  
          {
            "name": "江苏省常州市环球恐龙城休闲旅游区",
            "level": "5A",
            "longitude": 120.0060601,
            "latitude": 31.82814557
          },
          {
            "name": "江苏省常州市天目湖景区",
            "level": "5A",
            "longitude": 119.4522109,
            "latitude": 31.32434591
          },
          {
            "name": "江苏省常州市中国春秋淹城旅游区",
            "level": "5A",
            "longitude": 119.930306,
            "latitude": 31.70814696
          },
          {
            "name": "江苏省常州市天宁禅寺",
            "level": "4A",
            "longitude":119.969753,
            "latitude":  31.774513
          },
          {
            "name": "江苏省常州市红梅公园",
            "level": "4A",
            "longitude":119.9801236,
            "latitude": 31.78082444 
          },	
          {
            "name": "江苏省常州市博物馆",
            "level": "4A",
            "longitude": 119.9781407,
            "latitude": 31.81489624
          },
          {
            "name": "江苏省常州市青枫公园",
            "level": "4A",
            "longitude": 119.9054979,
            "latitude": 31.80361301 
          },
          {
            "name": "江苏省常州古运河南大街文化旅游区",
            "level": "4A",
            "longitude":119.951746,
            "latitude":31.776439  
          },
          {
            "name": "江苏省常州市环球动漫嬉戏谷景区",
            "level": "4A",
            "longitude": 120.054463,
            "latitude": 31.50637693
          },
          {
            "name": "江苏省常州市中华孝道园景区",
            "level": "4A",
            "longitude": 120.0772418,
            "latitude": 31.48273933 
          },		
          {
            "name": "江苏省常州溧阳市新四军江南指挥部纪念馆",
            "level": "4A",
            "longitude": 119.348987,
            "latitude": 31.51347089 
          },
          {
            "name": "江苏省常州市东方盐湖城▪道天下景区",
            "level": "4A",
            "longitude":119.3465964,
            "latitude": 31.76583747 
          },
          {
            "name": "江苏省常州市花谷奇缘景区",
            "level": "4A",
            "longitude": 119.3287815,
            "latitude": 31.74109851 
          } 
      ]  
  },  
  "南京市": {  
      "adcode": "320100", 
      "longitude": 118.7915619,
      "latitude": 32.0615513,
      "scenic_spots": [  
          {
            "name": "南京市钟山风景名胜区-中山陵园风景区",
            "level": "5A",
            "longitude": 118.861452969529,
            "latitude": 32.0597390400167
          },
          {
            "name": "南京市夫子庙—秦淮风光带景区",
            "level": "5A",
            "longitude":118.795956167338 ,
            "latitude": 32.0261958767219
          },
          {
            "name": "南京市雨花台风景区",
            "level": "4A",
            "longitude": 118.7880537737671,
            "latitude": 32.004004267758
          },
          {
            "name": "南京中国近代史遗址博物馆",
            "level": "4A",
            "longitude": 118.803803674442,
            "latitude": 32.0505712270215
          },
          {
            "name": "南京市阅江楼景区",
            "level": "4A",
            "longitude": 118.753120199603,
            "latitude": 32.0997637588483
          },
          {
            "name": "南京市玄武湖景区",
            "level": "4A",
            "longitude": 118.803993037244,
            "latitude": 32.0763750548717
          },
          {
            "name": "南京市朝天宫景区",
            "level": "4A",
            "longitude":118.781787014868 ,
            "latitude": 32.0404500486203
          },
          {
            "name": "南京市栖霞山风景区",
            "level": "4A",
            "longitude": 118.97637319342,
            "latitude": 32.1638674292045
          },
            {
            "name": "南京市侵华日军南京大屠杀遇难同胞纪念馆",
            "level": "4A",
            "longitude": 118.749883964173,
            "latitude":32.0411490550141 
          },
        {
            "name": "南京市科技馆",
            "level": "4A",
            "longitude": 118.756895418339,
            "latitude": 32.0714343840003
          },
          {
            "name": "南京市红山森林动物园",
            "level": "4A",
            "longitude":118.809395536411 ,
            "latitude": 32.098251632831
          }
      ]  
  }, 
  "连云港市": {  
      "adcode": "320700", 
      "longitude": 119.222027,
      "latitude": 34.602249,
      "scenic_spots": [  
          {
            "name": "江苏省连云港市花果山景区",
            "level": "5A",
            "longitude": 119.2809829,
            "latitude": 34.64722556
          },
          {
            "name": "江苏省连云港市连岛景区",
            "level": "4A",
            "longitude":119.46992 ,
            "latitude": 34.75948
          },
          {
            "name": "江苏省连云港市孔望山景区",
            "level": "4A",
            "longitude": 119.174941,
            "latitude": 34.567005
          },
          {
            "name": "江苏省连云港市渔湾景区",
            "level": "4A",
            "longitude": 119.3432445,
            "latitude": 34.64593018
          },
          {
            "name": "江苏省连云港市东海水晶文化旅游区",
            "level": "4A",
            "longitude": 118.7842805,
            "latitude": 34.55818967
          },
          {
            "name": "江苏省连云港市革命纪念馆",
            "level": "4A",
            "longitude": 119.2322581,
            "latitude": 34.59962509
          },
          {
            "name": "江苏省连云港市海上云台山景区",
            "level": "4A",
            "longitude":119.434338 ,
            "latitude": 34.71101199
          },
          {
            "name": "江苏省连云港市二郎神文化遗迹公园",
            "level": "4A",
            "longitude": 119.33173,
            "latitude": 34.13156343
          },
            {
            "name": "江苏省连云港市东海西双湖景区",
            "level": "4A",
            "longitude": 118.7209977,
            "latitude":34.53722963 
          },
        {
            "name": "江苏省连云港市大伊山景区",
            "level": "4A",
            "longitude": 119.2444753,
            "latitude": 34.31906317
          },
          {
            "name": "江苏省连云港市桃花涧景区",
            "level": "4A",
            "longitude":119.147293 ,
            "latitude": 34.548032
          }
      ]  
  }  
}